[
  {
    "id": 1,
    "name": "강남 비트코인 카페",
    "category": "카페",
    "address": "서울특별시 강남구 테헤란로 123",
    "lat": 37.4979,
    "lng": 127.0276
  },
  {
    "id": 2,
    "name": "홍대 크립토 버거",
    "category": "음식점",
    "address": "서울특별시 마포구 홍익로 456",
    "lat": 37.5565,
    "lng": 126.924
  },
  {
    "id": 3,
    "name": "명동 디지털 전자상가",
    "category": "전자제품",
    "address": "서울특별시 중구 명동길 789",
    "lat": 37.5636,
    "lng": 126.9834
  },
  {
    "id": 4,
    "name": "이태원 블록체인 서점",
    "category": "서점",
    "address": "서울특별시 용산구 이태원로 321",
    "lat": 37.5347,
    "lng": 126.9947
  },
  {
    "id": 5,
    "name": "강남역 사토시 초밥",
    "category": "음식점",
    "address": "서울특별시 강남구 강남대로 654",
    "lat": 37.498,
    "lng": 127.0276
  },
  {
    "id": 6,
    "name": "중구 비트호텔",
    "category": "호텔",
    "address": "서울특별시 중구 세종대로 987",
    "lat": 37.5665,
    "lng": 126.978
  },
  {
    "id": 7,
    "name": "신촌 코인마트",
    "category": "편의점",
    "address": "서울특별시 서대문구 신촌로 147",
    "lat": 37.5589,
    "lng": 126.9368
  },
  {
    "id": 8,
    "name": "압구정 디지털 델리",
    "category": "델리",
    "address": "서울특별시 강남구 압구정로 258",
    "lat": 37.5206,
    "lng": 127.023
  },
  {
    "id": 9,
    "name": "여의도 코인 피자",
    "category": "피자",
    "address": "서울특별시 영등포구 여의도동 369",
    "lat": 37.5219,
    "lng": 126.9245
  },
  {
    "id": 10,
    "name": "잠실 블록체인 헤어샵",
    "category": "미용실",
    "address": "서울특별시 송파구 잠실동 741",
    "lat": 37.5133,
    "lng": 127.1
  },
  {
    "id": 11,
    "name": "마포 디지털 체육관",
    "category": "헬스장",
    "address": "서울특별시 마포구 마포대로 852",
    "lat": 37.5663,
    "lng": 126.9019
  },
  {
    "id": 12,
    "name": "서초 코인 자동차정비",
    "category": "자동차정비",
    "address": "서울특별시 서초구 서초대로 963",
    "lat": 37.4837,
    "lng": 127.0324
  },
  {
    "id": 13,
    "name": "동작 비트코인 세탁소",
    "category": "세탁소",
    "address": "서울특별시 동작구 동작대로 159",
    "lat": 37.5124,
    "lng": 126.9393
  },
  {
    "id": 14,
    "name": "성동 디지털 약국",
    "category": "약국",
    "address": "서울특별시 성동구 왕십리로 357",
    "lat": 37.5506,
    "lng": 127.0409
  },
  {
    "id": 15,
    "name": "노원 블록체인 철물점",
    "category": "철물점",
    "address": "서울특별시 노원구 노원로 486",
    "lat": 37.6544,
    "lng": 127.0568
  },
  {
    "id": 16,
    "name": "석우동카페",
    "category": "카페",
    "address": "경기 화성시 동학산1길 5-5",
    "lat": 37.2239581367378,
    "lng": 127.075036561338
  },
  {
    "id": 17,
    "name": "파리바게뜨 신영통현대점",
    "category": "베이커리",
    "address": "경기 화성시 영통로61번길 6",
    "lat": 37.2354960118487,
    "lng": 127.061148742326
  }
]